{"districtId":57,"programs":[{"id":14,"programTypeCode":"RT","programTypeName":"Regular Track","programTypeDescription":"Regular Track","active":true,"sortOrder":1,"districtId":57,"programTypeGroup":"RD","district":null,"boundaryData":[]},{"id":15,"programTypeCode":"SE","programTypeName":"Special Education","programTypeDescription":"Special Education","active":true,"sortOrder":20,"districtId":57,"programTypeGroup":"SP","district":null,"boundaryData":[]},{"id":16,"programTypeCode":"SPRG","programTypeName":"Special Program","programTypeDescription":"Special Program","active":true,"sortOrder":30,"districtId":57,"programTypeGroup":"SP","district":null,"boundaryData":[]},{"id":17,"programTypeCode":"FI","programTypeName":"French Immersion","programTypeDescription":"French Immersion","active":true,"sortOrder":5,"districtId":57,"programTypeGroup":"FI","district":null,"boundaryData":[]},{"id":18,"programTypeCode":"OAA","programTypeName":"Optional Attendance Area","programTypeDescription":"Optional Attendance Area","active":true,"sortOrder":3,"districtId":57,"programTypeGroup":"SP","district":null,"boundaryData":[]},{"id":19,"programTypeCode":"ER","programTypeName":"Eastern Rite","programTypeDescription":"Eastern Rite","active":true,"sortOrder":50,"districtId":57,"programTypeGroup":"SP","district":null,"boundaryData":[]},{"id":129,"programTypeCode":"EFI","programTypeName":"Extended French Immersion","programTypeDescription":"Extended French Immersion","active":true,"sortOrder":60,"districtId":57,"programTypeGroup":"EFI","district":null,"boundaryData":[]}],"grades":[{"id":1,"gradeCode":"JK","gradeName":"JK","gradeOrder":1,"panelId":1,"gradeGroup":"PR","active":true,"ftefactor":1.0,"boundaryData":[]},{"id":2,"gradeCode":"SK","gradeName":"SK","gradeOrder":2,"panelId":1,"gradeGroup":"PR","active":true,"ftefactor":1.0,"boundaryData":[]},{"id":3,"gradeCode":"01","gradeName":"1","gradeOrder":3,"panelId":1,"gradeGroup":"PR","active":true,"ftefactor":1.0,"boundaryData":[]},{"id":4,"gradeCode":"02","gradeName":"2","gradeOrder":4,"panelId":1,"gradeGroup":"PR","active":true,"ftefactor":1.0,"boundaryData":[]},{"id":5,"gradeCode":"03","gradeName":"3","gradeOrder":5,"panelId":1,"gradeGroup":"JR","active":true,"ftefactor":1.0,"boundaryData":[]},{"id":6,"gradeCode":"04","gradeName":"4","gradeOrder":6,"panelId":1,"gradeGroup":"JR","active":true,"ftefactor":1.0,"boundaryData":[]},{"id":7,"gradeCode":"05","gradeName":"5","gradeOrder":7,"panelId":1,"gradeGroup":"JR","active":true,"ftefactor":1.0,"boundaryData":[]},{"id":8,"gradeCode":"06","gradeName":"6","gradeOrder":8,"panelId":1,"gradeGroup":"JR","active":true,"ftefactor":1.0,"boundaryData":[]},{"id":9,"gradeCode":"07","gradeName":"7","gradeOrder":9,"panelId":1,"gradeGroup":"IN","active":true,"ftefactor":1.0,"boundaryData":[]},{"id":10,"gradeCode":"08","gradeName":"8","gradeOrder":10,"panelId":1,"gradeGroup":"IN","active":true,"ftefactor":1.0,"boundaryData":[]},{"id":11,"gradeCode":"09","gradeName":"9","gradeOrder":11,"panelId":1,"gradeGroup":"SR","active":true,"ftefactor":1.0,"boundaryData":[]},{"id":12,"gradeCode":"10","gradeName":"10","gradeOrder":12,"panelId":1,"gradeGroup":"SR","active":true,"ftefactor":1.0,"boundaryData":[]},{"id":13,"gradeCode":"11","gradeName":"11","gradeOrder":13,"panelId":1,"gradeGroup":"SR","active":true,"ftefactor":1.0,"boundaryData":[]},{"id":14,"gradeCode":"12","gradeName":"12","gradeOrder":14,"panelId":1,"gradeGroup":"SR","active":true,"ftefactor":1.0,"boundaryData":[]},{"id":15,"gradeCode":"K","gradeName":"K","gradeOrder":0,"panelId":1,"gradeGroup":"PR","active":true,"ftefactor":1.0,"boundaryData":[]}],"municipalities":[{"id":3458,"name":"East York"},{"id":3459,"name":"Etobicoke"},{"id":3383,"name":"North York"},{"id":3370,"name":"Scarborough"},{"id":3386,"name":"Toronto"}],"schools":[{"id":8630,"name":"All Saints CES","city":"Weston","municipalityId":3383,"lat":43.685218,"long":-79.52709,"programTypeIds":[14,129]},{"id":8631,"name":"Annunciation CES","city":"Don Mills","municipalityId":3383,"lat":43.753113,"long":-79.321064,"programTypeIds":[14]},{"id":8632,"name":"Archbishop Romero CSS","city":"Toronto","municipalityId":3386,"lat":43.68047,"long":-79.48088,"programTypeIds":[]},{"id":8633,"name":"Bishop Allen Academy CSS","city":"Etobicoke","municipalityId":3459,"lat":43.634413,"long":-79.504473,"programTypeIds":[]},{"id":8634,"name":"Bishop Marrocco/Thomas Merton CSS","city":"Toronto","municipalityId":3386,"lat":43.65607,"long":-79.451548,"programTypeIds":[]},{"id":8635,"name":"St John XXIII CES","city":"Don Mills","municipalityId":3383,"lat":43.712518,"long":-79.329641,"programTypeIds":[14]},{"id":8636,"name":"St Kateri Tekakwitha CES","city":"Willowdale","municipalityId":3383,"lat":43.785859,"long":-79.337897,"programTypeIds":[14]},{"id":8637,"name":"Blessed Margherita of Citta Castello CES","city":"Downsview","municipalityId":3383,"lat":43.743809,"long":-79.507805,"programTypeIds":[14]},{"id":8638,"name":"Blessed Mother Teresa CSS","city":"Scarborough","municipalityId":3370,"lat":43.810027,"long":-79.214634,"programTypeIds":[]},{"id":8639,"name":"Blessed Sacrament CES","city":"Toronto","municipalityId":3386,"lat":43.727472,"long":-79.40396,"programTypeIds":[129,14]},{"id":8640,"name":"Blessed Trinity CES","city":"Willowdale","municipalityId":3383,"lat":43.786792,"long":-79.391944,"programTypeIds":[14]},{"id":8641,"name":"Brebeuf College","city":"Willowdale","municipalityId":3383,"lat":43.800213,"long":-79.402474,"programTypeIds":[]},{"id":8642,"name":"Canadian Martyrs CES","city":"Toronto","municipalityId":3386,"lat":43.69821,"long":-79.319621,"programTypeIds":[14]},{"id":8643,"name":"Cardinal Carter Academy for the Arts (7-12)","city":"Willowdale","municipalityId":3383,"lat":43.764043,"long":-79.409711,"programTypeIds":[]},{"id":8644,"name":"Cardinal Carter Academy for the Arts (7-12)","city":"Toronto","municipalityId":3386,"lat":43.764043,"long":-79.409711,"programTypeIds":[]},{"id":8645,"name":"Cardinal Leger CES","city":"West Hill","municipalityId":3370,"lat":43.793327,"long":-79.175398,"programTypeIds":[14,17]},{"id":8646,"name":"Cardinal Newman CS","city":"Scarborough","municipalityId":3370,"lat":43.714383,"long":-79.241011,"programTypeIds":[]},{"id":8647,"name":"Chaminade College","city":"Toronto","municipalityId":3386,"lat":43.710079,"long":-79.495901,"programTypeIds":[]},{"id":8648,"name":"Christ the King CES","city":"Toronto","municipalityId":3386,"lat":43.593973,"long":-79.537907,"programTypeIds":[]},{"id":8649,"name":"D'Arcy McGee CES","city":"Toronto","municipalityId":3386,"lat":43.692398,"long":-79.442976,"programTypeIds":[14,129]},{"id":8650,"name":"Dante Alighieri Academy","city":"Toronto","municipalityId":3386,"lat":43.710387,"long":-79.458009,"programTypeIds":[]},{"id":8651,"name":"Don Bosco CSS","city":"Weston","municipalityId":3383,"lat":43.701858,"long":-79.550071,"programTypeIds":[]},{"id":8652,"name":"Epiphany of our Lord Catholic Academy","city":"Agincourt","municipalityId":3370,"lat":43.798959,"long":-79.328982,"programTypeIds":[14]},{"id":8653,"name":"Father Henry Carr CSS","city":"Rexdale","municipalityId":3459,"lat":43.746328,"long":-79.581477,"programTypeIds":[]},{"id":8654,"name":"Father John Redmond CSS","city":"Etobicoke","municipalityId":3459,"lat":43.595028,"long":-79.516661,"programTypeIds":[]},{"id":8655,"name":"Father Serra CES","city":"Weston","municipalityId":3383,"lat":43.685965,"long":-79.536864,"programTypeIds":[14]},{"id":8656,"name":"Francis Libermann CES","city":"Toronto","municipalityId":3386,"lat":43.807124,"long":-79.274238,"programTypeIds":[]},{"id":8657,"name":"Francis Libermann CHS (9-12)","city":"Scarborough","municipalityId":3370,"lat":43.807124,"long":-79.274238,"programTypeIds":[]},{"id":8658,"name":"Holy Angels CES","city":"Toronto","municipalityId":3386,"lat":43.628461,"long":-79.517643,"programTypeIds":[14]},{"id":8659,"name":"Holy Child Catholic CES","city":"Rexdale","municipalityId":3459,"lat":43.728891,"long":-79.619089,"programTypeIds":[14]},{"id":8660,"name":"Holy Cross CES","city":"Toronto","municipalityId":3386,"lat":43.690038,"long":-79.340671,"programTypeIds":[14]},{"id":8661,"name":"Holy Family CES","city":"Toronto","municipalityId":3386,"lat":43.638467,"long":-79.434505,"programTypeIds":[14]},{"id":8662,"name":"Holy Name CES","city":"Toronto","municipalityId":3386,"lat":43.67738,"long":-79.347285,"programTypeIds":[14,17]},{"id":8663,"name":"Holy Redeemer CES","city":"Willowdale","municipalityId":3383,"lat":43.807023,"long":-79.363137,"programTypeIds":[]},{"id":8664,"name":"Holy Rosary CES","city":"Toronto","municipalityId":3386,"lat":43.684836,"long":-79.414303,"programTypeIds":[14,17]},{"id":8665,"name":"Holy Spirit CES","city":"Scarborough","municipalityId":3370,"lat":43.781455,"long":-79.303259,"programTypeIds":[14]},{"id":8666,"name":"Immaculate Conception CES","city":"Toronto","municipalityId":3386,"lat":43.697751,"long":-79.478059,"programTypeIds":[14]},{"id":8667,"name":"Immaculate Heart of Mary CES","city":"Scarborough","municipalityId":3370,"lat":43.696126,"long":-79.262495,"programTypeIds":[14]},{"id":8668,"name":"James Cardinal McGuigan CHS","city":"Downsview","municipalityId":3383,"lat":43.763373,"long":-79.493524,"programTypeIds":[]},{"id":8669,"name":"James Culnan CES","city":"Toronto","municipalityId":3386,"lat":43.661172,"long":-79.485531,"programTypeIds":[17,14]},{"id":8670,"name":"Jean Vanier CSS","city":"Scarborough","municipalityId":3370,"lat":43.738003,"long":-79.258391,"programTypeIds":[]},{"id":8671,"name":"Josyf Cardinal Slipyj CES","city":"Islington","municipalityId":3459,"lat":43.659676,"long":-79.56551,"programTypeIds":[19]},{"id":8672,"name":"Loretto Abbey CSS","city":"Toronto","municipalityId":3386,"lat":43.740937,"long":-79.410827,"programTypeIds":[]},{"id":8673,"name":"Loretto College","city":"Toronto","municipalityId":3386,"lat":43.675678,"long":-79.443469,"programTypeIds":[]},{"id":8674,"name":"Madonna CSS","city":"Downsview","municipalityId":3383,"lat":43.729422,"long":-79.477528,"programTypeIds":[]},{"id":8675,"name":"Marshall McLuhan CSS","city":"Toronto","municipalityId":3386,"lat":43.707652,"long":-79.409416,"programTypeIds":[]},{"id":8676,"name":"Mary Ward CSS","city":"Scarborough","municipalityId":3370,"lat":43.812745,"long":-79.304981,"programTypeIds":[]},{"id":8677,"name":"Michael Power/St Joseph CHS","city":"Etobicoke","municipalityId":3459,"lat":43.659307,"long":-79.582032,"programTypeIds":[]},{"id":8678,"name":"Monsignor Percy Johnson CHS","city":"Rexdale","municipalityId":3459,"lat":43.720862,"long":-79.571968,"programTypeIds":[]},{"id":8679,"name":"Mother Cabrini CES","city":"Etobicoke","municipalityId":3459,"lat":43.663677,"long":-79.586082,"programTypeIds":[14]},{"id":8680,"name":"Msgr Fraser College (Alternate Study) CSS","city":"Toronto","municipalityId":3386,"lat":43.656183,"long":-79.421185,"programTypeIds":[]},{"id":8681,"name":"Msgr Fraser College (Norfinch Campus)","city":"North York","municipalityId":3383,"lat":43.75772,"long":-79.527111,"programTypeIds":[]},{"id":8682,"name":"Msgr Fraser Orientation Centre","city":"Toronto","municipalityId":3386,"lat":43.669754,"long":-79.376902,"programTypeIds":[]},{"id":8683,"name":"Msgr Fraser (Isabella)","city":"Toronto","municipalityId":3386,"lat":43.669754,"long":-79.376902,"programTypeIds":[]},{"id":8684,"name":"Msgr Fraser-Midland","city":"Scarborough","municipalityId":3370,"lat":43.800999,"long":-79.285712,"programTypeIds":[]},{"id":8685,"name":"Msgr John Corrigan CES","city":"Rexdale","municipalityId":3459,"lat":43.751629,"long":-79.605035,"programTypeIds":[14]},{"id":8686,"name":"Nativity of Our Lord CES","city":"Etobicoke","municipalityId":3459,"lat":43.653415,"long":-79.575493,"programTypeIds":[129,14]},{"id":8687,"name":"Neil McNeil CHS","city":"Toronto","municipalityId":3386,"lat":43.679197,"long":-79.282842,"programTypeIds":[]},{"id":8688,"name":"Notre Dame CHS","city":"Toronto","municipalityId":3386,"lat":43.6808,"long":-79.293416,"programTypeIds":[]},{"id":8689,"name":"Our Lady of Fatima CES","city":"Scarborough","municipalityId":3370,"lat":43.70999,"long":-79.293507,"programTypeIds":[14,129]},{"id":8690,"name":"Our Lady of Grace CES","city":"Scarborough","municipalityId":3370,"lat":43.812447,"long":-79.274844,"programTypeIds":[14,129]},{"id":8691,"name":"Our Lady of Guadalupe CES","city":"Willowdale","municipalityId":3383,"lat":43.790033,"long":-79.353293,"programTypeIds":[14]},{"id":8692,"name":"Our Lady of Lourdes CES","city":"Toronto","municipalityId":3386,"lat":43.666133,"long":-79.374633,"programTypeIds":[14]},{"id":8693,"name":"Our Lady of Peace CES","city":"Islington","municipalityId":3459,"lat":43.646561,"long":-79.540855,"programTypeIds":[14,17]},{"id":8694,"name":"Our Lady of Perpetual Help CES","city":"Toronto","municipalityId":3386,"lat":43.687007,"long":-79.383447,"programTypeIds":[14,18]},{"id":8695,"name":"Our Lady of Sorrows CES","city":"Toronto","municipalityId":3386,"lat":43.648315,"long":-79.518995,"programTypeIds":[14]},{"id":8696,"name":"Our Lady of the Assumption CES","city":"Toronto","municipalityId":3386,"lat":43.716514,"long":-79.431678,"programTypeIds":[14]},{"id":8697,"name":"Our Lady of Victory CES","city":"Toronto","municipalityId":3386,"lat":43.683636,"long":-79.489737,"programTypeIds":[14]},{"id":8698,"name":"Our Lady of Wisdom CES","city":"Scarborough","municipalityId":3370,"lat":43.762036,"long":-79.308398,"programTypeIds":[17]},{"id":8699,"name":"Pope John Paul II CSS","city":"Scarborough","municipalityId":3370,"lat":43.789987,"long":-79.199442,"programTypeIds":[]},{"id":8700,"name":"Blessed Pope Paul VI","city":"Toronto","municipalityId":3386,"lat":43.673969,"long":-79.457773,"programTypeIds":[14]},{"id":8701,"name":"Precious Blood CES","city":"Scarborough","municipalityId":3370,"lat":43.739344,"long":-79.302251,"programTypeIds":[14]},{"id":8702,"name":"Prince of Peace CES","city":"Scarborough","municipalityId":3370,"lat":43.825398,"long":-79.278905,"programTypeIds":[14]},{"id":8703,"name":"Regina Mundi CES","city":"Toronto","municipalityId":3386,"lat":43.710056,"long":-79.459466,"programTypeIds":[14]},{"id":8704,"name":"Sacred Heart CES","city":"Scarborough","municipalityId":3370,"lat":43.812191,"long":-79.220266,"programTypeIds":[14]},{"id":8705,"name":"Santa Maria CES","city":"Toronto","municipalityId":3386,"lat":43.68163,"long":-79.477474,"programTypeIds":[14]},{"id":8706,"name":"Senator O'Connor","city":"Toronto","municipalityId":3386,"lat":43.750664,"long":-79.317448,"programTypeIds":[]},{"id":8707,"name":"Senhor Santo Cristo CES","city":"Toronto","municipalityId":3386,"lat":43.645996,"long":-79.421051,"programTypeIds":[]},{"id":8708,"name":"St Agatha CES","city":"Scarborough","municipalityId":3370,"lat":43.723595,"long":-79.229901,"programTypeIds":[14,17]},{"id":8709,"name":"St Agnes CES","city":"Willowdale","municipalityId":3383,"lat":43.798556,"long":-79.402598,"programTypeIds":[14]},{"id":8710,"name":"St Aidan CES","city":"Agincourt","municipalityId":3370,"lat":43.797536,"long":-79.309254,"programTypeIds":[14]},{"id":8711,"name":"St Albert CES","city":"Scarborough","municipalityId":3370,"lat":43.743782,"long":-79.261559,"programTypeIds":[14]},{"id":8712,"name":"St Alphonsus CES","city":"Toronto","municipalityId":3386,"lat":43.683038,"long":-79.432048,"programTypeIds":[14,17]},{"id":8713,"name":"St Ambrose CES","city":"Toronto","municipalityId":3386,"lat":43.608441,"long":-79.550124,"programTypeIds":[14]},{"id":8714,"name":"St Andrew CES","city":"Rexdale","municipalityId":3459,"lat":43.744894,"long":-79.58222,"programTypeIds":[14]},{"id":8715,"name":"St Angela CES","city":"Rexdale","municipalityId":3459,"lat":43.754535,"long":-79.596907,"programTypeIds":[14]},{"id":8716,"name":"St Anselm CES","city":"East York","municipalityId":3458,"lat":43.705346,"long":-79.371532,"programTypeIds":[14,18]},{"id":8717,"name":"St Anthony CES","city":"Toronto","municipalityId":3386,"lat":43.663607,"long":-79.43502,"programTypeIds":[14]},{"id":8718,"name":"St Antoine Daniel CES","city":"Willowdale","municipalityId":3383,"lat":43.777045,"long":-79.429669,"programTypeIds":[14]},{"id":8719,"name":"St Augustine of Cantebury CES","city":"Downsview","municipalityId":3383,"lat":43.7682,"long":-79.524912,"programTypeIds":[14]},{"id":8720,"name":"St Barbara CES","city":"Scarborough","municipalityId":3370,"lat":43.762466,"long":-79.219073,"programTypeIds":[14]},{"id":8721,"name":"St Barnabas CES","city":"Scarborough","municipalityId":3370,"lat":43.797292,"long":-79.228514,"programTypeIds":[14]},{"id":8722,"name":"St Bartholomew CES","city":"Agincourt","municipalityId":3370,"lat":43.789874,"long":-79.271582,"programTypeIds":[14]},{"id":8723,"name":"St Bede CES","city":"Scarborough","municipalityId":3370,"lat":43.817908,"long":-79.206708,"programTypeIds":[14]},{"id":8724,"name":"St Benedict CES","city":"Rexdale","municipalityId":3459,"lat":43.723233,"long":-79.573202,"programTypeIds":[14,17,129]},{"id":8725,"name":"St Bernard CES","city":"Toronto","municipalityId":3386,"lat":43.702525,"long":-79.500064,"programTypeIds":[14]},{"id":8726,"name":"St Bonaventure CES","city":"Don Mills","municipalityId":3383,"lat":43.732976,"long":-79.356109,"programTypeIds":[14,129]},{"id":8727,"name":"St Boniface CES","city":"Scarborough","municipalityId":3370,"lat":43.740575,"long":-79.219784,"programTypeIds":[14]},{"id":8728,"name":"St Brendan CES","city":"West Hill","municipalityId":3370,"lat":43.782559,"long":-79.149199,"programTypeIds":[14]},{"id":8729,"name":"St Brigid CES","city":"Toronto","municipalityId":3386,"lat":43.686913,"long":-79.316686,"programTypeIds":[14,17]},{"id":8730,"name":"St Bruno / St Raymond CES","city":"Toronto","municipalityId":3386,"lat":43.673306,"long":-79.427263,"programTypeIds":[14]},{"id":8731,"name":"St Catherine CES","city":"Don Mills","municipalityId":3383,"lat":43.742398,"long":-79.324459,"programTypeIds":[14]},{"id":8732,"name":"St Cecilia CES","city":"Toronto","municipalityId":3386,"lat":43.66058,"long":-79.474583,"programTypeIds":[14,17]},{"id":8733,"name":"St Charles CES","city":"Toronto","municipalityId":3386,"lat":43.713268,"long":-79.451293,"programTypeIds":[14]},{"id":8734,"name":"St Charles Garnier CES","city":"Downsview","municipalityId":3383,"lat":43.762358,"long":-79.517847,"programTypeIds":[14]},{"id":8735,"name":"St Clare CES","city":"Toronto","municipalityId":3386,"lat":43.679215,"long":-79.441522,"programTypeIds":[14,129]},{"id":8736,"name":"St Clement CES","city":"Etobicoke","municipalityId":3459,"lat":43.632255,"long":-79.573765,"programTypeIds":[14]},{"id":8737,"name":"St Columba CES","city":"Scarborough","municipalityId":3370,"lat":43.806195,"long":-79.211882,"programTypeIds":[14]},{"id":8738,"name":"St Conrad CES","city":"Toronto","municipalityId":3386,"lat":43.730166,"long":-79.493144,"programTypeIds":[14]},{"id":8739,"name":"St Cyril CES","city":"Willowdale","municipalityId":3383,"lat":43.776935,"long":-79.416717,"programTypeIds":[17]},{"id":8740,"name":"St Demetrius CES","city":"Weston","municipalityId":3383,"lat":43.68452,"long":-79.521591,"programTypeIds":[19]},{"id":8741,"name":"St Denis CES","city":"Toronto","municipalityId":3386,"lat":43.672976,"long":-79.289931,"programTypeIds":[14]},{"id":8742,"name":"St Dominic Savio CES","city":"Scarborough","municipalityId":3370,"lat":43.798142,"long":-79.155979,"programTypeIds":[14]},{"id":8743,"name":"St Dorothy CES","city":"Rexdale","municipalityId":3459,"lat":43.731616,"long":-79.591771,"programTypeIds":[14]},{"id":8744,"name":"St Dunstan CES","city":"Scarborough","municipalityId":3370,"lat":43.693368,"long":-79.284194,"programTypeIds":[14]},{"id":8745,"name":"St Edmund Campion CES","city":"West Hill","municipalityId":3370,"lat":43.788085,"long":-79.215653,"programTypeIds":[14]},{"id":8746,"name":"St Edward CES","city":"Willowdale","municipalityId":3383,"lat":43.7612,"long":-79.428186,"programTypeIds":[14]},{"id":8747,"name":"St Elizabeth CES","city":"Islington","municipalityId":3459,"lat":43.635134,"long":-79.557527,"programTypeIds":[14]},{"id":8748,"name":"St Elizabeth Seton CES","city":"Scarborough","municipalityId":3370,"lat":43.788914,"long":-79.246732,"programTypeIds":[14]},{"id":8749,"name":"St Eugene CES","city":"Weston","municipalityId":3383,"lat":43.692573,"long":-79.537177,"programTypeIds":[14,17]},{"id":8750,"name":"St Fidelis CES","city":"Toronto","municipalityId":3386,"lat":43.717279,"long":-79.48522,"programTypeIds":[14]},{"id":8751,"name":"St Florence CES","city":"Scarborough","municipalityId":3370,"lat":43.798459,"long":-79.206898,"programTypeIds":[14]},{"id":8752,"name":"St Francis de Sales CES","city":"Downsview","municipalityId":3383,"lat":43.754198,"long":-79.51915,"programTypeIds":[14]},{"id":8753,"name":"St Francis of Assisi CES","city":"Toronto","municipalityId":3386,"lat":43.656272,"long":-79.414657,"programTypeIds":[14]},{"id":8754,"name":"St Francis Xavier CES","city":"Toronto","municipalityId":3386,"lat":43.710994,"long":-79.48316,"programTypeIds":[14]},{"id":8755,"name":"St Gabriel Catholic CES","city":"Willowdale","municipalityId":3383,"lat":43.769211,"long":-79.391021,"programTypeIds":[14]},{"id":8756,"name":"St Gabriel Lalemant CES","city":"Scarborough","municipalityId":3370,"lat":43.812559,"long":-79.22673,"programTypeIds":[14]},{"id":8757,"name":"St Gerald CES","city":"Willowdale","municipalityId":3383,"lat":43.7807,"long":-79.326342,"programTypeIds":[14,17]},{"id":8758,"name":"St Gerard Majella CES","city":"Downsview","municipalityId":3383,"lat":43.725181,"long":-79.515181,"programTypeIds":[]},{"id":8759,"name":"St Gregory CES","city":"Islington","municipalityId":3459,"lat":43.660716,"long":-79.544599,"programTypeIds":[14,129]},{"id":8760,"name":"St Helen CES","city":"Toronto","municipalityId":3386,"lat":43.652224,"long":-79.435838,"programTypeIds":[14]},{"id":8761,"name":"St Henry CES","city":"Scarborough","municipalityId":3370,"lat":43.81379,"long":-79.327893,"programTypeIds":[14]},{"id":8762,"name":"St Ignatius of Loyola CES","city":"Scarborough","municipalityId":3370,"lat":43.803239,"long":-79.265285,"programTypeIds":[14]},{"id":8763,"name":"St Isaac Jogues CES","city":"Don Mills","municipalityId":3383,"lat":43.762468,"long":-79.321823,"programTypeIds":[14]},{"id":8764,"name":"St James CES","city":"Toronto","municipalityId":3386,"lat":43.664732,"long":-79.495158,"programTypeIds":[14]},{"id":8765,"name":"St Jane Frances CES","city":"Downsview","municipalityId":3383,"lat":43.742104,"long":-79.513209,"programTypeIds":[14]},{"id":8766,"name":"St Jean de Brebeuf CES","city":"Scarborough","municipalityId":3370,"lat":43.802281,"long":-79.173998,"programTypeIds":[14]},{"id":8767,"name":"St Jerome CES","city":"Downsview","municipalityId":3383,"lat":43.748843,"long":-79.488873,"programTypeIds":[14,17]},{"id":8768,"name":"St Joachim CES","city":"Toronto","municipalityId":3386,"lat":43.713007,"long":-79.275461,"programTypeIds":[14]},{"id":8769,"name":"St John Bosco CES","city":"Toronto","municipalityId":3386,"lat":43.688702,"long":-79.450641,"programTypeIds":[14]},{"id":8770,"name":"St John CES","city":"Toronto","municipalityId":3386,"lat":43.680194,"long":-79.294564,"programTypeIds":[129,14]},{"id":8771,"name":"St John the Evangelist CES","city":"Toronto","municipalityId":3386,"lat":43.703303,"long":-79.520743,"programTypeIds":[14]},{"id":8772,"name":"St John Vianney CES","city":"Rexdale","municipalityId":3459,"lat":43.738091,"long":-79.553633,"programTypeIds":[14]},{"id":8773,"name":"St Josaphat CES","city":"Toronto","municipalityId":3386,"lat":43.667798,"long":-79.455668,"programTypeIds":[19]},{"id":8774,"name":"St Joseph CES","city":"Toronto","municipalityId":3386,"lat":43.665799,"long":-79.331841,"programTypeIds":[]},{"id":8775,"name":"St Joseph's College","city":"Toronto","municipalityId":3386,"lat":43.664377,"long":-79.388878,"programTypeIds":[14]},{"id":8776,"name":"St Joseph Morrow Park CHS","city":"Willowdale","municipalityId":3383,"lat":43.797158,"long":-79.392443,"programTypeIds":[]},{"id":8777,"name":"St Jude CES","city":"Weston","municipalityId":3383,"lat":43.74053,"long":-79.539245,"programTypeIds":[14]},{"id":8778,"name":"St Kevin CES","city":"Scarborough","municipalityId":3370,"lat":43.750784,"long":-79.306156,"programTypeIds":[14]},{"id":8779,"name":"St Lawrence CES","city":"Scarborough","municipalityId":3370,"lat":43.749174,"long":-79.279905,"programTypeIds":[14]},{"id":8780,"name":"St Leo CES","city":"Toronto","municipalityId":3386,"lat":43.614267,"long":-79.496309,"programTypeIds":[14,17]},{"id":8781,"name":"St Louis CES","city":"Toronto","municipalityId":3386,"lat":43.625829,"long":-79.500884,"programTypeIds":[17,14]},{"id":8782,"name":"St Luigi CES","city":"Toronto","municipalityId":3386,"lat":43.662792,"long":-79.452218,"programTypeIds":[14]},{"id":8783,"name":"Pope Francis (St Luke CES)","city":"Toronto","municipalityId":3386,"lat":43.651649,"long":-79.421089,"programTypeIds":[14]},{"id":8784,"name":"St Malachy CES","city":"West Hill","municipalityId":3370,"lat":43.771136,"long":-79.166263,"programTypeIds":[14]},{"id":8785,"name":"St Marcellus CES","city":"Weston","municipalityId":3383,"lat":43.67969,"long":-79.554185,"programTypeIds":[14]},{"id":8786,"name":"St Margaret CES","city":"Toronto","municipalityId":3386,"lat":43.735984,"long":-79.426539,"programTypeIds":[129,14]},{"id":8787,"name":"St Marguerite Bourgeoys CES","city":"Agincourt","municipalityId":3370,"lat":43.808204,"long":-79.285133,"programTypeIds":[14]},{"id":8788,"name":"St Maria Goretti CES","city":"Scarborough","municipalityId":3370,"lat":43.729898,"long":-79.265982,"programTypeIds":[14,129]},{"id":8789,"name":"St Mark CES","city":"Etobicoke","municipalityId":3459,"lat":43.634472,"long":-79.490231,"programTypeIds":[14]},{"id":8790,"name":"St Martha CES","city":"Downsview","municipalityId":3383,"lat":43.74097,"long":-79.502051,"programTypeIds":[14]},{"id":8791,"name":"St Martin De Porres CES","city":"West Hill","municipalityId":3370,"lat":43.766957,"long":-79.186425,"programTypeIds":[14,129]},{"id":8792,"name":"St Mary CES","city":"Toronto","municipalityId":3386,"lat":43.645761,"long":-79.404751,"programTypeIds":[14,17]},{"id":8793,"name":"St Mary of the Angels CES","city":"Toronto","municipalityId":3386,"lat":43.67221,"long":-79.440106,"programTypeIds":[14]},{"id":8794,"name":"St Mary's CSS","city":"Toronto","municipalityId":3386,"lat":43.657987,"long":-79.432094,"programTypeIds":[]},{"id":8795,"name":"St Matthew CES","city":"Toronto","municipalityId":3386,"lat":43.680621,"long":-79.467818,"programTypeIds":[14]},{"id":8796,"name":"St Matthias CES","city":"Willowdale","municipalityId":3383,"lat":43.784875,"long":-79.359511,"programTypeIds":[14]},{"id":8797,"name":"St Maurice CES","city":"Weston","municipalityId":3383,"lat":43.697941,"long":-79.55403,"programTypeIds":[14]},{"id":8798,"name":"St Maximilian Kolbe CS","city":"Toronto","municipalityId":3386,"lat":43.809369,"long":-79.316643,"programTypeIds":[]},{"id":8799,"name":"St Michael CES","city":"Toronto","municipalityId":3386,"lat":43.647882,"long":-79.369861,"programTypeIds":[]},{"id":8800,"name":"St Michael's Choir (Jr) CES","city":"Toronto","municipalityId":3386,"lat":43.655011,"long":-79.378058,"programTypeIds":[]},{"id":8801,"name":"St Michael's Choir (Sr) CES","city":"Toronto","municipalityId":3386,"lat":43.655011,"long":-79.378058,"programTypeIds":[]},{"id":8802,"name":"St Monica CES","city":"Toronto","municipalityId":3386,"lat":43.71019,"long":-79.39756,"programTypeIds":[14]},{"id":8803,"name":"St Nicholas CES","city":"Scarborough","municipalityId":3370,"lat":43.747981,"long":-79.233012,"programTypeIds":[14]},{"id":8804,"name":"St Nicholas of Bari CES","city":"Toronto","municipalityId":3386,"lat":43.682813,"long":-79.460383,"programTypeIds":[14]},{"id":8805,"name":"St Norbert CES","city":"Downsview","municipalityId":3383,"lat":43.734561,"long":-79.464465,"programTypeIds":[14]},{"id":8806,"name":"St Paschal Baylon CES","city":"Willowdale","municipalityId":3383,"lat":43.792043,"long":-79.431662,"programTypeIds":[14]},{"id":8807,"name":"St Patrick CSS","city":"Toronto","municipalityId":3386,"lat":43.678142,"long":-79.328102,"programTypeIds":[]},{"id":8808,"name":"St Paul CES","city":"Toronto","municipalityId":3386,"lat":43.655504,"long":-79.361678,"programTypeIds":[14]},{"id":8809,"name":"St Philip Neri CES","city":"Downsview","municipalityId":3383,"lat":43.718892,"long":-79.510272,"programTypeIds":[]},{"id":8810,"name":"St Pius X CES","city":"Toronto","municipalityId":3386,"lat":43.651261,"long":-79.48477,"programTypeIds":[14]},{"id":8811,"name":"St Raphael CES","city":"Downsview","municipalityId":3383,"lat":43.728511,"long":-79.488788,"programTypeIds":[14]},{"id":8812,"name":"St Raymond CES","city":"Toronto","municipalityId":3386,"lat":43.665931,"long":-79.422977,"programTypeIds":[]},{"id":8813,"name":"St Rene Goupil CES","city":"Scarborough","municipalityId":3370,"lat":43.819391,"long":-79.287906,"programTypeIds":[14]},{"id":8814,"name":"St Richard CES","city":"Scarborough","municipalityId":3370,"lat":43.768305,"long":-79.239959,"programTypeIds":[129,14]},{"id":8815,"name":"St Rita CES","city":"Toronto","municipalityId":3386,"lat":43.666166,"long":-79.456303,"programTypeIds":[14]},{"id":8816,"name":"St Robert CES","city":"Downsview","municipalityId":3383,"lat":43.749812,"long":-79.444483,"programTypeIds":[14]},{"id":8817,"name":"St Roch CES","city":"Weston","municipalityId":3383,"lat":43.75366,"long":-79.566679,"programTypeIds":[14]},{"id":8818,"name":"St Rose of Lima CES","city":"Scarborough","municipalityId":3370,"lat":43.75729,"long":-79.240555,"programTypeIds":[14]},{"id":8819,"name":"St Sebastian CES","city":"Toronto","municipalityId":3386,"lat":43.662936,"long":-79.439794,"programTypeIds":[14]},{"id":8820,"name":"St Simon CES","city":"Weston","municipalityId":3383,"lat":43.719617,"long":-79.535946,"programTypeIds":[14]},{"id":8821,"name":"St Stephen CES","city":"Rexdale","municipalityId":3459,"lat":43.72194,"long":-79.554593,"programTypeIds":[14]},{"id":8822,"name":"St Sylvester CES","city":"Scarborough","municipalityId":3370,"lat":43.805304,"long":-79.302278,"programTypeIds":[14]},{"id":8823,"name":"St Teresa CES","city":"Toronto","municipalityId":3386,"lat":43.599348,"long":-79.50913,"programTypeIds":[]},{"id":8824,"name":"St Theresa Shrine CES","city":"Scarborough","municipalityId":3370,"lat":43.715639,"long":-79.242572,"programTypeIds":[14]},{"id":8825,"name":"St Thomas Aquinas CES","city":"Toronto","municipalityId":3386,"lat":43.695912,"long":-79.445722,"programTypeIds":[14]},{"id":8826,"name":"St Thomas More CES","city":"Scarborough","municipalityId":3370,"lat":43.778407,"long":-79.225194,"programTypeIds":[14]},{"id":8827,"name":"St Timothy CES","city":"Willowdale","municipalityId":3383,"lat":43.774917,"long":-79.351051,"programTypeIds":[14,129]},{"id":8828,"name":"St Ursula CES","city":"Scarborough","municipalityId":3370,"lat":43.749823,"long":-79.199745,"programTypeIds":[14]},{"id":8829,"name":"St Victor CES","city":"Scarborough","municipalityId":3370,"lat":43.769079,"long":-79.259105,"programTypeIds":[14]},{"id":8830,"name":"St Vincent de Paul CES","city":"Toronto","municipalityId":3386,"lat":43.646809,"long":-79.447868,"programTypeIds":[14,129]},{"id":8831,"name":"St Wilfrid CES","city":"Downsview","municipalityId":3383,"lat":43.760026,"long":-79.502633,"programTypeIds":[14]},{"id":8832,"name":"St Basil-the-Great College","city":"North York","municipalityId":3383,"lat":43.727952,"long":-79.532846,"programTypeIds":[]},{"id":8833,"name":"Stella Maris CES","city":"Toronto","municipalityId":3386,"lat":43.679675,"long":-79.44474,"programTypeIds":[14]},{"id":8834,"name":"Sts Cosmas and Damian CES","city":"North York","municipalityId":3383,"lat":43.706965,"long":-79.444429,"programTypeIds":[14]},{"id":8835,"name":"The Divine Infant CES","city":"Scarborough","municipalityId":3370,"lat":43.821806,"long":-79.270429,"programTypeIds":[14]},{"id":8836,"name":"Transfiguration of our Lord CES","city":"Weston","municipalityId":3383,"lat":43.691572,"long":-79.563037,"programTypeIds":[14]},{"id":8837,"name":"Venerable John Merlini CES","city":"Weston","municipalityId":3383,"lat":43.75648,"long":-79.579591,"programTypeIds":[14]},{"id":12712,"name":"St Michael CES","city":"Toronto","municipalityId":3386,"lat":43.669984,"long":-79.377076,"programTypeIds":[14]},{"id":13074,"name":"St John the Evangelist CES (Temporary)","city":"Toronto","municipalityId":3386,"lat":43.66781,"long":-79.455614,"programTypeIds":[]},{"id":137982,"name":"Holy Angels CES (Replacement School)","city":"Toronto","municipalityId":3386,"lat":43.628461,"long":-79.517643,"programTypeIds":[]},{"id":137983,"name":"St Leo CES","city":"Toronto","municipalityId":3386,"lat":43.614267,"long":-79.496309,"programTypeIds":[14,17]},{"id":137984,"name":"Pope Francis CES","city":"Toronto","municipalityId":3386,"lat":43.651649,"long":-79.421089,"programTypeIds":[]},{"id":137985,"name":"St Raymond CES (Replacement School)","city":"Toronto","municipalityId":3386,"lat":43.665931,"long":-79.422977,"programTypeIds":[]},{"id":137986,"name":"St John Henry Newman CSS","city":"Scarborough","municipalityId":3370,"lat":43.714348,"long":-79.240973,"programTypeIds":[]},{"id":138075,"name":"Francis Libermann CHS (7-8)","city":"Scarborough","municipalityId":3370,"lat":43.807124,"long":-79.274238,"programTypeIds":[]}],"schoolAttributes":[{"id":2,"districtId":null,"attrId":2,"attrName":"Address","attrOrder":2,"attrType":"string","isHidden":false,"schAttrValues":[]},{"id":3,"districtId":null,"attrId":3,"attrName":"City","attrOrder":3,"attrType":"string","isHidden":false,"schAttrValues":[]},{"id":4,"districtId":null,"attrId":4,"attrName":"PostalCode","attrOrder":4,"attrType":"string","isHidden":false,"schAttrValues":[]},{"id":5,"districtId":null,"attrId":5,"attrName":"Phone","attrOrder":5,"attrType":"string","isHidden":false,"schAttrValues":[]}]}